city,state,latitude,longitude,annual_cpi
Hobart,TAS,-42.8821,147.3272,5.1
Adelaide,SA,-34.9285,138.6007,4.9
Brisbane,QLD,-27.4698,153.0251,4.7
Melbourne,VIC,-37.8136,144.9631,4.6
Perth,WA,-31.9523,115.8613,4.6
Sydney,NSW,-33.8688,151.2093,4.4
Canberra,ACT,-35.2809,149.13,4.2
Darwin,NT,-12.4634,130.8456,4.2
